,City,Cloudiness,Country,Date,Humidity,Lat,Lng,Max Temp,Wind Speed
0,rikitea,0,PF,1554418140,100,-23.12,-134.97,76.58,16.46
1,saint-philippe,1,CA,1554418120,27,45.36,-73.48,35.6,16.11
2,busselton,0,AU,1554417940,61,-33.64,115.35,46.99,9.08
3,maarianhamina,,,,,,,,
4,artyk,,,,,,,,
5,kaitangata,92,NZ,1554418076,60,-46.28,169.85,53.01,10
6,qaanaaq,64,GL,1554418140,86,77.48,-69.36,4.13,5.5
7,hobart,20,AU,1554418095,54,-42.88,147.33,59,9.17
8,qianan,88,CN,1554418141,64,44.99,124.06,38.42,19.82
9,vila,75,IT,1554418139,87,45.18,8.4,46.99,3.36
10,fortuna,90,ES,1554418028,71,38.18,-1.13,57.99,4.05
11,punta arenas,75,CL,1554417752,65,-53.16,-70.91,46.4,26.4
12,albany,1,US,1554418027,20,42.65,-73.75,44.6,21.92
13,sao filipe,36,CV,1554418142,96,14.9,-24.5,70.46,19.04
14,vaini,24,IN,1554418142,84,15.34,74.49,66.68,1.81
15,port lincoln,48,AU,1554418142,69,-34.72,135.86,72.71,23.73
16,kapaa,20,US,1554417810,54,22.08,-159.32,80.6,12.75
17,kaeo,56,NZ,1554417485,71,-35.1,173.78,66.99,5.01
18,himora,,,,,,,,
19,rawannawi,,,,,,,,
20,sumbe,24,AO,1554418143,100,-11.2,13.84,80.36,6.4
21,havelock,1,US,1554418097,32,34.88,-76.9,69.8,9.17
22,hermanus,80,ZA,1554418005,85,-34.42,19.24,57.99,3.27
23,atuona,76,PF,1554418143,99,-9.8,-139.03,82.52,15.79
24,kahului,20,US,1554417994,51,20.89,-156.47,84.2,19.46
25,chiang klang,8,TH,1554418144,92,19.29,100.86,67.31,1.92
26,ampanihy,0,MG,1554418144,81,-24.69,44.75,69.92,5.28
27,faanui,80,PF,1554418144,100,-16.48,-151.75,81.17,7.07
28,sorland,0,NO,1554418144,100,67.67,12.69,37.88,15.23
29,hithadhoo,64,MV,1554418144,100,-0.6,73.08,81.62,3.49
30,cape town,75,ZA,1554417967,72,-33.93,18.42,61,12.75
31,belushya guba,,,,,,,,
32,palabuhanratu,,,,,,,,
33,upernavik,8,GL,1554418145,87,72.79,-56.15,13.4,17.25
34,grindavik,75,IS,1554417416,100,63.84,-22.43,39,9.17
35,geraldton,20,CA,1554415200,24,49.72,-86.95,35.6,13.87
36,paita,0,PE,1554415200,290,-5.09,-81.11,62.6,9.17
37,port elizabeth,1,US,1554418057,31,39.31,-74.98,64.4,5.82
38,dunmore town,80,BS,1554418146,100,25.5,-76.65,75.05,18.48
39,yulara,0,AU,1554415200,38,-25.24,130.99,59,6.93
40,jamestown,0,AU,1554418099,37,-33.21,138.6,76.31,15.57
41,roebourne,0,AU,1554418146,66,-20.77,117.15,78.65,3.6
42,saint-francois,0,FR,1554418004,79,46.42,3.91,32,3.36
43,guerrero negro,0,MX,1554418147,61,27.97,-114.04,65.6,12.44
44,puerto ayora,32,EC,1554412567,84,-0.74,-90.35,82,3
45,alice springs,0,AU,1554417000,37,-23.7,133.88,66.2,6.96
46,timbiqui,92,CO,1554418147,98,2.77,-77.67,75.05,3.38
47,lasa,20,CY,1554418000,87,34.92,32.53,57.2,3.36
48,port hardy,75,CA,1554415200,71,50.7,-127.42,53.6,16.11
49,rudnya,88,RU,1554418148,97,50.8,44.56,33.92,7.63
50,ushuaia,75,AR,1554416820,86,-54.81,-68.31,39.2,26.4
51,saint-joseph,0,FR,1554418086,37,43.56,6.97,52,4.7
52,bethel,1,US,1554414960,50,60.79,-161.76,28.4,24.16
53,new norfolk,20,AU,1554418095,54,-42.78,147.06,59,9.17
54,komatipoort,0,MZ,1554417928,69,-25.43,31.96,73.4,4.7
55,ostrovnoy,8,RU,1554418149,82,68.05,39.51,19.88,7.85
56,norman wells,20,CA,1554415200,51,65.28,-126.83,12.2,9.17
57,barentsburg,,,,,,,,
58,tuggurt,,,,,,,,
59,pevek,32,RU,1554418150,95,69.7,170.27,19.07,5.39
60,komsomolskiy,88,RU,1554418150,96,67.55,63.78,31.94,20.15
61,kargasok,0,RU,1554418150,72,59.06,80.87,19.43,2.26
62,assiniboia,20,CA,1554418150,57,49.63,-105.99,58.31,10.2
63,port alfred,92,ZA,1554418001,82,-33.59,26.89,66,10
64,souillac,0,FR,1554418104,81,45.6,-0.6,48,9.17
65,airai,88,TL,1554418150,91,-8.93,125.41,70.37,1.03
66,takoradi,76,GH,1554418151,100,4.89,-1.75,81.17,11.65
67,castro,90,CL,1554415200,71,-42.48,-73.76,53.6,4.7
68,arman,0,RU,1554418052,66,59.7,150.17,36.35,11.21
69,nishihara,0,JP,1554418124,50,35.74,139.53,62.01,5.82
70,kodiak,90,US,1554418111,47,39.95,-94.76,57.2,6.93
71,bredasdorp,76,ZA,1554418005,81,-34.53,20.04,57,6.93
72,nome,90,US,1554418130,78,30.04,-94.42,84.2,8.05
73,bluff,12,AU,1554418152,52,-23.58,149.07,77.84,13.44
74,vilhena,0,BR,1554415200,94,-12.74,-60.15,73.4,5.82
75,taolanaro,,,,,,,,
76,hay river,40,CA,1554415200,43,60.82,-115.79,12.2,5.82
77,finote selam,8,ET,1554418152,90,10.7,37.27,46.25,2.71
78,illoqqortoormiut,,,,,,,,
79,antalaha,80,MG,1554418153,98,-14.9,50.28,75.68,5.95
80,aklavik,40,CA,1554415200,61,68.22,-135.01,12.2,3.36
81,salinopolis,68,BR,1554418153,98,-0.61,-47.36,79.82,8.75
82,ribeira grande,48,PT,1554418153,100,38.52,-28.7,57.77,17.92
83,saskylakh,0,RU,1554418153,81,71.97,114.09,13.31,7.18
84,monterey,90,US,1554417842,55,36.6,-121.89,63,5.82
85,atocha,92,EC,1554418059,81,-1.22,-78.6,55,1.14
86,nueva rosita,64,MX,1554418044,22,27.94,-101.22,82.7,3.94
87,labuhan,92,ID,1554418154,95,-2.54,115.51,73.88,3.15
88,torbay,75,CA,1554418111,90,47.66,-52.73,34,29.97
89,barrow,0,AR,1554418154,79,-38.31,-60.23,57.05,15.68
90,butaritari,88,KI,1554418154,100,3.07,172.79,78.2,5.28
91,mataura,76,NZ,1554417605,79,-46.19,168.86,51.01,5.28
92,tiksi,0,RU,1554418155,71,71.64,128.87,25.91,5.95
93,dingle,0,PH,1554418155,76,11,122.67,79.73,9.75
94,la asuncion,92,EC,1554418155,98,-1.64,-78.74,50.03,0.36
95,udachnyy,76,RU,1554418155,70,66.42,112.4,21.5,3.15
96,esperance,20,TT,1554418019,69,10.24,-61.45,81,13.87
97,novikovo,0,UA,1554418156,100,45.05,34.56,28.43,1.7
98,natal,20,BR,1554415200,78,-5.81,-35.21,82.4,4.7
99,meyungs,,,,,,,,
100,avarua,24,CK,1554415200,74,-21.21,-159.78,78.8,2.24
101,safaga,,,,,,,,
102,kabompo,0,ZM,1554418156,86,-13.6,24.21,62.18,5.39
103,rocha,48,UY,1554418156,77,-34.48,-54.34,67.4,14.23
104,cabo san lucas,75,MX,1554418034,39,22.89,-109.91,84.99,9.17
105,lolua,,,,,,,,
106,grand river south east,,,,,,,,
107,iqaluit,75,CA,1554415200,65,63.75,-68.52,8.6,20.8
108,vardo,75,US,1554418093,33,39.62,-77.74,64.4,4.7
109,chilca,20,PE,1554417000,81,-13.22,-72.34,64.4,12.75
110,stromness,75,CA,1554418141,38,42.87,-79.55,41,2.24
111,morehead,1,US,1554418021,20,38.18,-83.43,73.4,3.38
112,ishigaki,75,JP,1554417060,94,24.34,124.16,71.6,4.7
113,iwanai,92,JP,1554418158,100,42.97,140.51,36.8,10.09
114,haibowan,,,,,,,,
115,narrabri,0,AU,1554415200,59,-30.33,149.78,66.2,9.17
116,mar del plata,0,AR,1554418158,48,-46.43,-67.52,61.37,18.03
117,tsihombe,,,,,,,,
118,mahebourg,20,MU,1554418143,94,-20.41,57.7,77,3.36
119,yar-sale,64,RU,1554418159,87,66.83,70.83,28.97,14.79
120,mys shmidta,,,,,,,,
121,margate,20,AU,1554417915,54,-43.03,147.26,59,9.17
122,xining,0,CN,1554418159,70,36.62,101.77,21.95,2.59
123,yellowknife,20,CA,1554418155,51,62.45,-114.38,10.99,11.41
124,port augusta,0,AU,1554417597,33,-32.49,137.76,77,14.99
125,half moon bay,20,US,1554418148,72,37.46,-122.43,63,11.41
126,marcona,,,,,,,,
127,bayangol,92,MN,1554418160,69,48.91,106.09,28.34,13.56
128,turukhansk,20,RU,1554418160,79,65.8,87.96,10.43,3.04
129,karakol,8,KG,1554418160,84,42.49,78.39,23.84,2.15
130,east london,68,ZA,1554418086,100,-33.02,27.91,70.01,25.08
131,hilo,90,US,1554418096,61,19.71,-155.08,79,10.29
132,tukums,0,LV,1554416400,51,56.97,23.17,37.4,4.7
133,grand gaube,20,MU,1554418143,94,-20.01,57.66,77,3.36
134,aleksandrovskoye,0,RU,1554417933,54,56.74,85.39,32,8.95
135,buala,80,SB,1554418161,79,-8.15,159.59,86.57,7.63
136,pisco,90,PE,1554415200,30,-13.71,-76.2,71.6,12.75
137,batticaloa,0,LK,1554418066,100,7.71,81.69,76.31,4.16
138,malakal,,,,,,,,
139,teguise,20,ES,1554415200,67,29.06,-13.56,62.6,8.05
140,fernie,75,CA,1554417952,43,49.5,-115.06,59,9.17
141,caxito,40,BR,1554415200,88,-22.65,-42.51,78.8,9.17
142,sitka,0,US,1554417120,46,37.17,-99.65,71.01,1.99
143,chokurdakh,36,RU,1554418162,98,70.62,147.9,15.02,5.06
144,whitehorse,75,CA,1554417729,53,60.72,-135.06,28,12.75
145,olinda,92,EC,1554418014,81,-2.03,-79.75,84.99,1.01
146,marawi,32,PH,1554418024,88,8,124.29,73,5.99
147,namatanai,88,PG,1554418162,100,-3.66,152.44,80.36,3.94
148,louisbourg,,,,,,,,
149,qaqortoq,92,GL,1554414600,50,60.72,-46.03,30.2,4.7
150,provideniya,0,RU,1554417000,73,64.42,-173.23,26.6,11.18
151,cherskiy,0,RU,1554418163,73,68.75,161.3,26.63,2.37
152,coro,44,VE,1554418163,82,11.41,-69.67,77.3,10.87
153,male,24,UA,1554418163,77,50.74,33.7,27.08,2.93
154,attawapiskat,,,,,,,,
155,ibra,48,OM,1554418164,44,22.69,58.55,65.33,0.92
156,sentyabrskiy,,,,,,,,
157,emilio carranza,0,MX,1554418164,58,19.97,-96.61,81.89,3.71
158,ellisras,0,ZA,1554418164,69,-23.67,27.74,64.25,8.97
159,sept-iles,90,CA,1554418109,53,50.2,-66.38,24.01,24.16
160,sakaiminato,75,JP,1554418091,34,35.55,133.23,55.4,11.41
161,tasiilaq,0,GL,1554414600,73,65.61,-37.64,26.6,4.7
162,liseleje,8,DK,1554418052,61,56.01,11.96,50,16.11
163,suicheng,0,CN,1554418165,68,33.9,117.93,56.24,8.19
164,san jeronimo,56,PE,1554418165,48,-13.65,-73.37,50.39,1.92
165,fort nelson,90,CA,1554415200,67,58.81,-122.69,17.6,5.82
166,nikolskoye,0,RU,1554417897,44,59.7,30.79,41,6.71
167,verkhnevilyuysk,32,RU,1554418166,77,63.45,120.31,26,3.6
168,olafsvik,,,,,,,,
169,kavieng,48,PG,1554418166,100,-2.57,150.8,82.43,2.04
170,dikson,56,RU,1554418166,100,73.51,80.55,17.81,8.19
171,bengkulu,,,,,,,,
172,boundiali,92,CI,1554418166,81,9.53,-6.48,74.24,6.17
173,bambous virieux,20,MU,1554418143,94,-20.34,57.76,77,3.36
174,mustasaari,48,FI,1554418060,94,63.17,21.67,33.01,9.17
175,maniitsoq,80,GL,1554418167,77,65.42,-52.9,27.08,9.31
176,victoria,75,BN,1554417000,88,5.28,115.24,78.8,1.12
177,salinas,40,US,1554418162,67,36.67,-121.66,64,4.7
178,szczecinek,0,PL,1554418105,58,53.71,16.69,51.01,11.99
179,kruisfontein,92,ZA,1554418168,89,-34,24.73,63.17,12.66
180,waipawa,80,NZ,1554418168,62,-39.94,176.59,61.55,4.5
181,lata,8,IN,1554418168,72,30.78,78.62,44.9,2.71
182,skibbereen,20,IE,1554415200,100,51.55,-9.27,37.4,8.05
183,tuktoyaktuk,75,CA,1554415200,84,69.44,-133.03,1.4,4.7
184,sioux lookout,75,CA,1554416160,27,50.1,-91.92,41,11.41
185,warqla,,,,,,,,
186,taoudenni,80,ML,1554418169,50,22.68,-3.98,75.86,3.71
187,kamenka,88,RU,1554417842,77,53.19,44.05,37.99,6.85
188,bansang,8,GM,1554418170,38,13.44,-14.66,82.07,10.54
189,puerto ayacucho,20,CO,1554415200,49,5.66,-67.63,91.4,5.82
190,portland,90,US,1554417875,55,45.52,-122.67,61,3.36
191,vershino-darasunskiy,20,RU,1554418170,44,52.35,115.52,27.35,4.61
192,hope,1,CA,1554417131,51,49.38,-121.43,62.6,5.82
193,ahuimanu,75,US,1554417995,69,21.44,-157.84,84.2,8.05
194,bandar-e lengeh,88,IR,1554418170,93,26.56,54.88,75.23,2.71
195,hasaki,75,JP,1554417450,87,35.73,140.83,52,3.36
196,hambantota,0,LK,1554412200,100,6.12,81.12,75.2,2.24
197,kalmunai,0,LK,1554418171,100,7.42,81.82,70.01,2.59
198,genthin,20,DE,1554418114,87,52.41,12.16,57.99,1.01
199,san patricio,92,PY,1554418171,97,-26.98,-56.83,73.61,5.61
200,salalah,20,OM,1554414600,69,17.01,54.1,78.8,3.36
201,shingu,48,JP,1554418172,91,33.72,135.99,62,10.76
202,guhagar,0,IN,1554418172,100,17.48,73.19,76.31,3.6
203,bimbo,20,CF,1554415200,88,4.33,18.53,77,3.36
204,acapulco,5,MX,1554414420,66,16.86,-99.88,86,13.87
205,hualmay,24,PE,1554418172,87,-11.1,-77.61,68.21,5.06
206,ikornnes,0,NO,1554418034,86,62.39,6.56,41,17.22
207,kharabali,48,RU,1554418173,81,47.41,47.25,40.13,5.06
208,longyearbyen,90,NO,1554416400,86,78.22,15.63,28.4,26.4
209,saldanha,92,PT,1554418173,98,41.42,-6.55,40.67,10.76
210,bud,0,NO,1554418031,65,62.91,6.91,41,12.75
211,satipo,24,PE,1554418173,93,-11.26,-74.64,69.02,0.36
212,anito,8,PH,1554418173,99,12.45,125.29,80,9.53
213,nanortalik,80,GL,1554418174,95,60.14,-45.24,31.13,33.8
214,khatanga,64,RU,1554418174,89,71.98,102.47,16.91,15.68
215,bilibino,0,RU,1554418174,71,68.06,166.44,31.04,3.15
216,bandarbeyla,0,SO,1554418174,100,9.49,50.81,79.46,4.72
217,san cristobal,92,EC,1554418059,81,-0.39,-78.55,55,2.15
218,noumea,0,NC,1554415200,69,-22.28,166.46,78.8,12.75
219,harper,1,US,1554417917,17,30.3,-99.24,90,12.75
220,hami,44,CN,1554418175,49,42.84,93.51,46.07,2.93
221,nargana,88,PA,1554418175,98,9.44,-78.59,80.99,12.66
222,ellensburg,20,US,1554418058,50,47,-120.55,60.8,6.93
223,russell,0,AR,1554415200,27,-33.01,-68.8,73.4,2.24
224,clyde river,5,CA,1554415200,77,70.47,-68.59,1.4,8.05
225,karaul,,,,,,,,
226,tazovskiy,88,RU,1554418176,85,67.47,78.7,20.51,15.01
227,tavda,0,RU,1554418176,63,58.04,65.27,15.83,2.71
228,georgetown,40,GY,1554415200,66,6.8,-58.16,84.2,11.41
229,luanda,40,AO,1554415200,83,-8.83,13.24,82.4,3.36
230,saint-augustin,0,FR,1554418104,70,44.83,-0.61,48.2,11.41
231,tuatapere,92,NZ,1554417605,79,-46.13,167.69,51.01,6.62
232,namibe,0,AO,1554418177,100,-15.19,12.15,78.56,10.42
233,nguiu,,,,,,,,
234,san rafael,0,AR,1554418178,22,-34.61,-68.33,60.02,8.3
235,quthing,92,LS,1554418178,100,-30.4,27.7,50.75,1.92
236,carnarvon,8,ZA,1554418179,75,-30.97,22.13,52.91,16.02
237,homnabad,24,IN,1554418179,83,17.77,77.13,66.5,2.82
238,thompson,90,CA,1554415200,73,55.74,-97.86,21.2,8.05
239,kourou,40,GF,1554417000,78,5.16,-52.64,78.8,3.36
240,ancud,90,CL,1554415200,71,-41.87,-73.83,53.6,4.7
241,chapais,40,CA,1554415200,52,49.78,-74.86,17.6,18.34
242,arraial do cabo,40,BR,1554415200,88,-22.97,-42.02,78.8,9.17
243,menongue,80,AO,1554418180,36,-14.66,17.68,74.78,4.83
244,ugoofaaru,0,MV,1554418180,100,5.67,73,84.23,4.72
245,sorgun,12,TR,1554418180,82,39.81,35.19,31.49,2.71
246,siilinjarvi,0,FI,1554416400,94,63.08,27.67,33.8,6.93
247,chuy,92,UY,1554418180,98,-33.69,-53.46,67.94,11.21
248,hovd,75,NO,1554417917,73,63.83,10.7,43,12.75
249,mangan,12,IN,1554418180,63,27.5,88.54,20.24,2.15
250,eenhana,0,NA,1554415200,42,-17.48,16.34,80.6,3.36
251,saint anthony,90,US,1554418014,76,43.97,-111.68,54,9.17
252,leova,0,MD,1554418181,83,46.48,28.25,35.81,6.96
253,la ronge,90,CA,1554415200,63,55.1,-105.3,28.4,8.05
254,lyubeshiv,,,,,,,,
255,touros,40,BR,1554415200,88,-5.2,-35.46,80.6,4.7
256,roma,75,IT,1554418144,93,41.89,12.48,50,2.24
257,creemore,1,CA,1554418031,47,44.33,-80.11,39,6.93
258,wharton,75,GB,1554418147,81,53.2,-2.51,44.6,10.29
259,atbasar,68,KZ,1554418182,98,51.81,68.36,40.22,6.73
260,sorvag,,,,,,,,
261,saleaula,,,,,,,,
262,diamantino,12,BR,1554418182,84,-14.4,-56.44,78.56,3.94
263,vilyuysk,68,RU,1554418182,77,63.75,121.63,27.08,3.71
264,necochea,0,AR,1554417681,75,-38.55,-58.74,62.01,10
265,saint-pierre,0,FR,1554418025,84,48.95,4.24,37.4,10.29
266,ribas do rio pardo,8,BR,1554418183,85,-20.45,-53.76,75.77,7.96
267,kulhudhuffushi,0,MV,1554418183,100,6.62,73.07,83.78,5.39
268,tlahualilo,,,,,,,,
269,bolungarvik,,,,,,,,
270,creel,32,MX,1554417965,17,27.75,-107.63,64.7,6.96
271,chunskiy,0,RU,1554418184,67,56.08,99.63,15.38,3.15
272,sivas,0,TR,1554414600,97,39.75,37.01,32,6.93
273,lebu,0,ET,1554418184,82,8.96,38.73,50.93,3.94
274,troitskoye,44,RU,1554418184,95,52.98,84.68,32.75,5.28
275,makakilo city,1,US,1554417995,54,21.35,-158.09,84.2,13.87
276,merauke,8,ID,1554418185,88,-8.49,140.4,84.77,2.15
277,vredendal,92,ZA,1554418185,96,-31.68,18.49,59.03,3.38
278,nizhneyansk,,,,,,,,
279,jawad,56,IN,1554418185,51,24.6,74.86,74.51,8.63
280,koga,75,JP,1554417971,70,36.18,139.75,62.01,4.7
281,vila franca do campo,75,PT,1554418043,71,37.72,-25.43,55,17.22
282,maceio,0,BR,1554415200,83,-9.67,-35.74,78.8,6.93
283,el silencio,12,CO,1554418185,69,7.03,-74.84,76.49,2.15
284,azimur,,,,,,,,
285,mergui,,,,,,,,
286,spearfish,1,US,1554417905,39,44.49,-103.86,64,5.82
287,kysyl-syr,24,RU,1554418186,71,63.9,122.77,26.9,3.6
288,pimentel,92,BR,1554418186,90,-3.7,-45.5,75.14,3.71
289,katsuura,75,JP,1554415200,65,33.93,134.5,51.8,8.05
290,lagoa,75,PT,1554418030,82,37.14,-8.45,55.99,17.22
291,karratha,0,AU,1554418026,66,-20.74,116.85,78.65,3.6
292,okha,92,RU,1554418187,97,53.59,142.95,31.13,18.03
293,bilma,0,NE,1554418187,22,18.69,12.92,74.78,6.85
294,dunedin,92,NZ,1554417891,66,-45.87,170.5,52,7
295,sataua,,,,,,,,
296,pangoa,48,PE,1554418187,89,-12.12,-73,71.9,1.14
297,pangnirtung,90,CA,1554415200,65,66.15,-65.72,3.2,2.24
298,andevoranto,,,,,,,,
299,emerald,0,AU,1554417755,77,-23.53,148.16,71.01,13.87
300,krasnoselkup,,,,,,,,
301,yingzhong,,,,,,,,
302,mlimba,8,TZ,1554418188,91,-8.78,35.81,69.29,0.69
303,ponta do sol,48,BR,1554418188,94,-20.63,-46,66.95,1.59
304,ilulissat,40,GL,1554414600,49,69.22,-51.1,26.6,26.4
305,severo-kurilsk,36,RU,1554418188,91,50.68,156.12,34.73,4.61
306,reforma,40,MX,1554417615,8,24.02,-104.65,78.01,10.29
307,digby,76,CA,1554418006,49,44.62,-65.76,36,31
308,tanabe,48,JP,1554418021,66,33.73,135.39,51.01,3.71
309,nola,8,CF,1554418189,97,3.52,16.05,71.18,2.15
310,sambava,88,MG,1554418189,100,-14.27,50.17,80.9,13.33
311,vostok,92,RU,1554418189,78,46.45,135.83,32.75,3.15
312,jiuquan,0,CN,1554418189,64,39.73,98.49,28.25,6.62
313,hervey bay,75,AU,1554417925,73,-25.3,152.85,77,11.41
314,banda aceh,32,ID,1554418101,96,5.56,95.32,76.13,1.36
315,aasiaat,76,GL,1554418190,90,68.71,-52.87,28.16,7.4
316,egvekinot,32,RU,1554418190,87,66.32,-179.17,18.98,3.15
317,svobodnyy,92,RU,1554417961,91,53.85,40.53,35.01,3
318,carnduff,0,CA,1554418034,43,49.17,-101.8,62.01,7
319,martil,40,MA,1554415200,58,35.62,-5.28,59,12.75
320,bosaso,8,SO,1554418191,100,11.28,49.18,78.92,5.95
321,drovyanaya,40,RU,1554415200,62,51.58,113.05,21.2,4.47
322,luderitz,0,NA,1554418191,76,-26.65,15.16,62.18,18.03
323,palmer,0,AU,1554417865,23,-34.85,139.16,82.4,23.04
324,batagay-alyta,32,RU,1554418191,87,67.8,130.41,21.32,4.16
325,rudnogorsk,80,RU,1554418020,73,57.27,103.75,23.21,4.94
326,marathokambos,,,,,,,,
327,pedasi,0,PA,1554418191,86,7.53,-80.03,79.28,11.21
328,cidreira,76,BR,1554418192,91,-30.17,-50.22,75.23,5.39
329,maracaibo,75,CO,1554415200,61,3.41,-75.78,80.6,9.17
330,vaasa,48,FI,1554418060,94,63.1,21.62,33.01,9.17
331,bambanglipuro,36,ID,1554418192,99,-7.95,110.28,74.69,4.38
332,marzuq,48,YE,1554418192,88,14.4,46.47,57.68,2.48
333,impfondo,0,CD,1554418192,97,1.62,18.06,72.71,2.15
334,talcahuano,0,CL,1554415200,63,-36.72,-73.12,60.8,16.11
335,rawson,0,AR,1554418193,37,-43.3,-65.11,55.79,6.17
336,burnie,8,AU,1554418085,98,-41.05,145.91,54,5.99
337,tighina,0,RO,1554417000,49,44.57,24.3,46.4,14.99
338,samusu,,,,,,,,
339,port keats,0,AU,1554417959,71,-14.25,129.55,87.47,16.13
340,berekum,80,GH,1554418193,91,7.45,-2.58,75.95,9.64
341,ust-ilimsk,44,RU,1554418193,81,57.96,102.73,22.31,4.94
342,port hedland,0,AU,1554417000,83,-20.31,118.58,71.6,8.05
343,paysandu,12,UY,1554418194,60,-32.32,-58.08,66.05,16.8
344,sassandra,56,CI,1554418194,100,4.95,-6.09,81.8,14.9
345,temaraia,,,,,,,,
346,toftir,,,,,,,,
347,odweyne,,,,,,,,
348,kawalu,92,ID,1554418194,98,-7.38,108.21,68.93,1.7
349,saint-pascal,,,,,,,,
350,awjilah,80,LY,1554418194,38,29.14,21.3,63.8,9.86
351,kamenskoye,,,,,,,,
352,vaitape,36,PF,1554418195,100,-16.52,-151.75,83.51,10.98
353,ossora,92,RU,1554418195,98,59.24,163.07,32.12,19.48
354,umm lajj,0,SA,1554418032,100,25.02,37.27,62.18,4.38
355,rudsar,90,IR,1554415200,93,37.14,50.29,53.6,0.47
356,paamiut,92,GL,1554418195,84,61.99,-49.67,35.63,29.89
357,corinto,20,BR,1554418196,72,-18.36,-44.46,75.77,5.17
358,puerto baquerizo moreno,8,EC,1554418196,100,-0.9,-89.6,79.82,4.16
359,rio gallegos,40,AR,1554415200,57,-51.62,-69.22,51.8,21.92
360,pakwach,,,,,,,,
361,sobolevo,0,RU,1554418196,71,54.43,31.9,23.3,2.82
362,saint marys,1,US,1554418012,36,41.43,-78.56,52,5.82
363,bagli,24,IN,1554418196,55,22.64,76.35,71,6.29
364,nabire,8,ID,1554418197,81,-3.36,135.5,78.02,2.37
365,conway,20,US,1554418042,77,35.09,-92.44,64.4,6.93
366,san pedro,80,AR,1554417809,60,-33.68,-59.66,64,5.99
367,kainantu,56,PG,1554418199,87,-6.29,145.87,70.28,2.04
368,belomorsk,92,RU,1554418199,94,64.52,34.76,33.65,3.15
369,petropavlovskoye,20,RU,1554415200,91,46.79,142.5,32,2.24
370,surgut,0,RU,1554417000,92,61.25,73.4,24.8,2.24
371,los llanos de aridane,20,ES,1554417660,67,28.66,-17.92,60.8,5.82
372,huarmey,8,PE,1554418199,80,-10.07,-78.15,68.66,3.38
373,pasighat,100,IN,1554418199,85,28.06,95.33,55.07,1.7
374,varhaug,0,NO,1554417964,87,58.61,5.65,48,6.93
375,biak,36,ID,1554418200,98,-0.91,122.88,79.91,2.37
376,tumannyy,,,,,,,,
377,north bend,75,US,1554417988,77,43.41,-124.22,59,21.92
378,isabela,20,PH,1554417923,79,10.2,122.99,79.37,4.72
379,sahrak,,,,,,,,
380,baniachang,76,BD,1554418200,95,24.52,91.37,67.4,13.78
381,ocos,75,GT,1554415200,52,14.51,-92.19,91.4,4.7
382,pontianak,20,ID,1554417000,100,-0.02,109.34,75.2,3.36
383,auki,0,NG,1554418201,42,12.18,6.51,71.72,3.6
384,tual,20,ID,1554418201,100,-5.67,132.75,82.61,9.64
385,vastervik,,,,,,,,
386,nuuk,75,GL,1554417726,50,64.17,-51.74,30.2,16.11
387,shimoda,12,JP,1554417394,44,34.7,138.93,55,3
388,sanary-sur-mer,0,FR,1554418195,46,43.12,5.8,52,8.05
389,muros,75,ES,1554418194,100,42.77,-9.06,48,3.36
390,palmerston,75,CA,1554418193,38,43.83,-80.85,42.01,3.36
391,kenora,40,CA,1554417728,69,49.76,-94.48,41,17.22
392,erzin,40,TR,1554418095,76,36.95,36.2,57.2,4.7
393,ouesso,12,CG,1554418203,97,1.61,16.05,73.16,2.37
394,ponta delgada,75,PT,1554418164,66,37.73,-25.67,55,11.41
395,aksu,90,KZ,1554417000,93,52.04,76.93,44.6,8.95
396,bathsheba,40,BB,1554415200,69,13.22,-59.52,78.8,17.22
397,kijang,0,KR,1554415200,49,35.24,129.21,46.4,2.24
398,verkhniy kurkuzhin,8,RU,1554417000,80,43.69,43.28,39.2,2.24
399,zhigalovo,8,RU,1554418057,66,54.81,105.15,20.87,3.71
400,turayf,0,SA,1554415200,76,31.68,38.65,55.4,4.7
401,narsaq,92,GL,1554414600,50,60.91,-46.05,30.2,4.7
402,daru,12,SL,1554418204,77,7.99,-10.85,78.02,6.4
403,umzimvubu,,,,,,,,
404,kenai,90,US,1554418024,34,60.55,-151.26,39.99,16.11
405,sanming,80,CN,1554418204,98,26.24,117.6,60.11,2.71
406,saint george,20,GR,1554417795,87,39.45,22.34,52,2.71
407,juba,0,EE,1554417617,59,57.82,26.93,39.99,3.36
408,bossembele,,,,,,,,
409,rawa mazowiecka,0,PL,1554418166,50,51.76,20.25,55,8.05
410,roald,0,NO,1554418203,86,62.58,6.12,41,17.22
411,petropavlovsk-kamchatskiy,90,RU,1554415200,89,53.05,158.65,35.6,8.95
412,wad madani,,,,,,,,
413,atar,0,MR,1554418206,71,20.52,-13.05,54.62,2.93
414,manicore,20,BR,1554418206,84,-5.81,-61.3,79.64,2.26
415,katangli,92,RU,1554418206,92,51.71,143.23,31.67,16.46
416,khani,0,GE,1554415200,100,41.96,42.96,41,9.17
417,key west,90,US,1554418500,74,47.93,-96.78,37.99,16.11
418,wa,,,,,,,,
419,bhadrachalam,0,IN,1554418207,93,17.67,80.89,71.18,3.6
420,sakakah,,,,,,,,
421,del carmen,40,PH,1554418083,78,15.01,120.53,84.99,2.24
422,sosva,0,RU,1554418207,70,59.17,61.86,18.44,3.94
423,lorengau,0,PG,1554418208,93,-2.02,147.27,84.68,4.61
424,srednekolymsk,20,RU,1554418208,76,67.46,153.71,20.6,3.15
425,tilichiki,92,RU,1554418208,89,60.47,166.1,35.09,9.19
426,yuzhno-yeniseyskiy,,,,,,,,
427,aljezur,44,PT,1554418030,87,37.31,-8.8,55.99,21.27
428,husavik,92,CA,1554418202,98,50.56,-96.99,35.01,13
429,ledyard,1,US,1554418207,16,41.44,-72.02,54,14.99
430,ahipara,88,NZ,1554418209,83,-35.17,173.16,66.32,9.19
431,havre-saint-pierre,40,CA,1554415200,85,50.23,-63.6,23,42.5
432,urdzhar,,,,,,,,
433,mayumba,76,GA,1554418209,100,-3.44,10.65,79.55,6.29
434,acarau,,,,,,,,
435,guanica,1,PR,1554418115,61,17.97,-66.91,80.01,17.22
436,port blair,0,IN,1554418020,100,11.67,92.75,83.6,3.71
437,etchoropo,20,MX,1554417931,35,26.77,-109.67,88,5.99
438,fort morgan,8,US,1554417984,18,40.25,-103.8,69.8,4.7
439,coolum beach,24,AU,1554418206,99,-26.53,153.09,66.99,1.99
440,mweka,92,CD,1554418210,99,-4.85,21.56,70.37,1.92
441,salekhard,32,RU,1554418210,84,66.54,66.62,24.92,13.67
442,meadow lake,90,CA,1554415200,68,54.13,-108.44,30.2,10.29
443,codrington,40,AU,1554418049,77,-28.95,153.24,70,4.38
444,matola,0,MZ,1554418210,79,-25.97,32.47,73.97,10.2
445,santa rosa,0,AR,1554418213,49,-36.62,-64.29,58.76,10.65
446,cap-aux-meules,75,CA,1554415200,58,47.38,-61.86,28.4,41.38
447,san andres,0,PH,1554418214,100,13.32,122.68,78.74,5.5
448,kazalinsk,,,,,,,,
449,nagato,75,JP,1554417452,86,34.35,131.14,55.4,4.7
450,jumla,0,NP,1554418214,89,29.28,82.18,27.98,2.59
451,kununurra,75,AU,1554417000,58,-15.77,128.74,86,4.7
452,buraydah,0,SA,1554415200,33,26.33,43.97,71.6,16.11
453,shangrao,88,CN,1554418215,97,28.45,117.97,54.8,2.82
454,lahat,76,ID,1554418215,97,-3.78,103.55,73.07,3.38
455,nara,0,JP,1554417872,75,34.68,135.8,53.6,3.36
456,haines junction,76,CA,1554418074,71,60.75,-137.51,25.91,2.59
457,fort smith,1,US,1554418019,56,35.39,-94.42,69.01,4.7
458,fernley,20,US,1554417946,26,39.61,-119.25,62.6,4.7
459,puerto del rosario,20,ES,1554415200,63,28.5,-13.86,64.4,12.75
460,gat,0,SN,1554415200,68,14.69,-16.54,66.2,23.04
461,bazaliya,88,UA,1554418216,66,49.71,26.47,39.68,10.98
462,moindou,0,NC,1554415200,69,-21.69,165.68,78.8,12.75
463,trzebiatow,0,PL,1554418171,44,54.06,15.26,57.2,16.11
464,castrillon,44,ES,1554418056,87,43.4,-6.79,46.4,2.24
465,bereda,20,ES,1554418205,87,43.27,-7.54,46,8.05
466,calvinia,8,ZA,1554418216,92,-31.47,19.78,46.97,4.83
467,vydrino,88,RU,1554417834,37,51.46,104.64,30.99,4
468,evanston,90,US,1554418071,93,42.04,-87.69,46.99,12.75
469,okhotsk,92,RU,1554418217,73,59.36,143.24,35.36,6.73
470,pascagoula,90,US,1554417977,88,30.37,-88.56,62.6,16.11
471,richards bay,88,ZA,1554418217,96,-28.77,32.06,70.28,11.99
472,lake havasu city,1,US,1554418114,15,34.47,-114.34,82.99,10.29
473,vangaindrano,76,MG,1554418217,98,-23.35,47.6,68.21,1.59
474,bose,90,IT,1554418210,81,45.46,8.01,46.99,2.24
475,dongsheng,0,CN,1554418218,94,29.72,112.52,55.07,10.98
476,dolbeau,,,,,,,,
477,moshenskoye,20,RU,1554418218,68,58.52,34.59,23.39,2.59
478,deputatskiy,0,RU,1554418218,84,69.3,139.9,20.6,3.94
479,leningradskiy,20,RU,1554418101,100,69.38,178.42,11.6,6.73
480,antsohihy,24,MG,1554418218,100,-14.88,47.99,71.99,2.93
481,dubti,36,ET,1554418219,60,11.74,41.09,76.49,2.71
482,kidal,56,ML,1554418219,24,18.44,1.41,76.67,2.15
483,matara,56,PE,1554418219,48,-13.74,-72.9,50.39,1.92
484,atherton,75,GB,1554418217,81,53.52,-2.49,44.6,10.29
485,sao jose da coroa grande,8,BR,1554418219,96,-8.9,-35.15,77.93,5.95
486,redcliffe,92,GB,1554418215,86,51.45,-2.59,43,14.99
487,eydhafushi,0,MV,1554418220,100,5.1,73.07,84.23,4.72
488,karacakoy,0,TR,1554417885,93,41.4,28.38,48.2,9.17
489,cadillac,40,US,1554418033,35,44.25,-85.4,45,11.41
490,pleshanovo,12,RU,1554415200,59,57.46,28.17,33.8,2.24
491,rock sound,88,BS,1554418220,100,24.9,-76.2,75.23,19.26
492,klyuchi,92,RU,1554418220,96,52.25,79.17,50.48,11.99
493,piacabucu,24,BR,1554418221,87,-10.41,-36.43,79.28,6.17
494,jaru,0,BR,1554418221,85,-10.43,-62.48,79.64,2.59
495,chulman,24,RU,1554418221,67,56.84,124.9,23.84,3.49
496,penzance,75,GB,1554418204,93,50.12,-5.53,48,6.93
497,muyezerskiy,88,RU,1554418221,98,63.93,31.65,33.47,4.16
498,sinfra,0,CI,1554417730,94,6.62,-5.91,80.6,5.61
499,cazaje,,,,,,,,
500,mount gambier,36,AU,1554415200,52,-37.83,140.78,68,16.11
501,yantal,64,RU,1554418222,71,56.85,105.25,19.88,3.49
502,uaua,64,BR,1554418222,92,-9.84,-39.48,71.9,4.27
503,moradabad,0,IN,1554418222,70,28.83,78.77,72.17,3.49
504,la libertad,40,PE,1554415200,67,-16.38,-71.56,59,10.29
505,lavrentiya,0,RU,1554418175,95,65.58,-170.99,22.31,20.83
506,platteville,90,US,1554418220,86,42.73,-90.48,46.4,12.75
507,taitung,75,TW,1554415200,88,22.76,121.15,73.4,3.36
508,kazachinskoye,0,RU,1554418223,65,57.69,93.28,12.77,2.48
509,arroyo,1,US,1554418205,36,41.39,-78.88,52,5.82
510,port-gentil,40,GA,1554415200,89,-0.72,8.78,84.2,9.17
511,evensk,20,RU,1554418223,81,61.92,159.24,34.28,16.91
512,martinez,40,US,1554417987,59,38.01,-122.13,66,11.41
513,amderma,,,,,,,,
514,vao,0,EE,1554418204,82,59.1,26.19,32.03,5.28
515,karpathos,0,GR,1554416400,81,35.51,27.21,53.6,5.82
516,rio linda,90,US,1554418223,67,38.69,-121.45,66,5.82
517,lazdijai,0,LT,1554418224,53,54.23,23.51,38.15,12.1
518,luau,12,CD,1554418224,92,-10.7,22.23,66.59,2.82
519,valparaiso,90,US,1554418008,80,41.47,-87.06,48.2,9.17
520,kieta,88,PG,1554418225,100,-6.22,155.63,80.27,3.15
521,ketchikan,90,US,1554414960,87,55.34,-131.65,44.6,20.8
522,balabac,8,PH,1554418225,100,7.99,117.06,82.34,7.63
523,laguna,40,MX,1554414060,17,27.52,-110.01,89.6,11.41
524,safranbolu,12,TR,1554418225,91,41.25,32.69,34.91,2.59
525,beisfjord,0,NO,1554417948,63,68.38,17.6,32,13.87
526,ust-kamchatsk,,,,,,,,
527,tabiauea,,,,,,,,
528,amga,36,RU,1554418226,65,60.89,131.98,26.27,3.6
529,mayo,20,CA,1554415200,25,63.59,-135.9,24.8,11.41
530,rjukan,0,NO,1554418087,81,59.88,8.59,39.99,7
531,tabialan,,,,,,,,
532,kerman,40,IR,1554415200,50,30.29,57.06,53.6,6.93
533,leshukonskoye,88,RU,1554418227,72,64.9,45.76,34.37,7.4
534,linfen,0,CN,1554418227,75,36.09,111.52,48.32,2.37
535,sterling,40,US,1554418107,31,39,-77.4,66.99,4.7
536,mapimi,75,MX,1554417797,13,25.82,-103.85,87.01,11.41
537,qovlar,40,AZ,1554417000,81,40.95,45.73,44.6,6.93
538,ailigandi,12,PA,1554418227,68,9.23,-78.02,80.45,6.17
539,acajutla,0,SV,1554417626,79,13.59,-89.83,80.01,5.01
540,belgrade,0,RS,1554418029,47,44.82,20.46,55.4,19.46
541,tailai,88,CN,1554418228,66,46.39,123.41,37.7,18.7
542,naron,20,ES,1554418205,87,43.52,-8.15,48,8.05
543,inderborskiy,,,,,,,,
544,mariental,48,DE,1554418216,94,52.28,10.99,46.99,1.99
545,halifax,20,CA,1554418106,32,44.65,-63.58,37.4,26.4
546,hofn,64,IS,1554418228,100,64.25,-15.21,35.63,9.31
547,guiratinga,48,BR,1554418229,87,-16.35,-53.76,75.41,3.83
548,jinxiang,0,CN,1554417327,45,35.07,116.31,59,5.39
549,plouzane,48,FR,1554418087,93,48.38,-4.62,42.01,11.41
550,ichinohe,64,JP,1554418229,75,40.14,141.28,46.61,11.88
551,byron bay,68,AU,1554418049,60,-28.65,153.62,75.99,11.41
552,siquirres,0,CR,1554418013,74,10.1,-83.51,82.4,9.17
553,manzanares,80,ES,1554418230,43,39,-3.37,45.53,8.3
554,okato,68,NZ,1554417844,54,-39.19,173.88,66,5.01
555,klaksvik,8,FO,1554416400,93,62.23,-6.59,42.8,16.11
556,andover,1,US,1554418207,16,42.66,-71.14,48.2,17.22
557,pampa,1,US,1554417990,28,35.54,-100.96,73.99,6.93
558,juventino rosas,75,MX,1554418219,14,20.64,-101,82.4,12.75
559,barawe,,,,,,,,
560,taburi,,,,,,,,
561,longonjo,12,AO,1554418231,92,-12.91,15.25,59.39,2.37
562,tete,40,MZ,1554415200,94,-16.16,33.59,68,5.73
563,sembe,,,,,,,,
564,general roca,0,AR,1554415200,28,-39.03,-67.58,71.6,8.05
565,kula,0,RS,1554417000,57,45.61,19.53,50,12.75
566,ballina,64,IE,1554418206,92,54.11,-9.15,41,3.6
567,labelle,75,US,1554418222,61,26.76,-81.44,79,12.75
568,tautira,20,PF,1554417748,63,-17.73,-149.15,91.4,13.87
569,broken hill,0,AU,1554415200,37,-31.97,141.45,71.6,13.87
570,bhopal,76,IN,1554418187,66,23.25,77.4,69.11,2.71
571,coffs harbour,75,AU,1554418104,68,-30.3,153.13,71.6,11.41
572,kilemary,0,RU,1554418232,66,56.78,46.86,19.7,7.18
573,rungata,,,,,,,,
574,wagga wagga,90,AU,1554418026,64,-35.12,147.37,68,14.99
575,afsin,76,TR,1554418233,100,38.25,36.91,32.03,2.59
576,cururupu,92,BR,1554418233,99,-1.82,-44.87,74.06,4.72
577,camana,,,,,,,,
578,itaguacu,8,BR,1554418233,91,-19.8,-40.86,70.82,3.71
579,kyren,88,RU,1554418233,82,51.68,102.13,20.42,2.37
580,vaitupu,,,,,,,,
581,tezu,92,IN,1554418233,79,27.93,96.16,54.26,1.36
582,agadez,8,NE,1554418204,21,16.97,7.99,77.03,9.75
583,hobyo,8,SO,1554418234,90,5.35,48.53,79.1,9.19
584,waddan,32,LY,1554418234,42,29.16,16.14,64.34,6.4
585,lai,76,CN,1554418234,97,27.82,91.75,36.98,0.92
586,volosovo,0,RU,1554417000,44,59.45,29.48,41,6.71
587,fukue,75,JP,1554417844,66,35.03,136.69,55.99,6.93
588,katobu,8,ID,1554418234,100,-4.94,122.53,81.08,3.83
589,sinnamary,100,GF,1554418235,91,5.38,-52.96,80.9,10.98
590,jakarta,20,ID,1554417954,78,-6.18,106.83,80.01,4.7
591,agadir,20,MA,1554415200,67,30.42,-9.58,59,14.99
592,lufkin,1,US,1554418006,74,31.34,-94.73,82.4,4.7
593,vestmannaeyjar,68,IS,1554418118,93,63.44,-20.27,37.7,3.71
594,eseka,64,CM,1554418235,81,3.65,10.77,77.3,2.82
595,sokolovyy,90,RU,1554418194,100,51.57,45.83,36,4.47
596,manokwari,24,ID,1554418149,100,-0.87,134.08,81.35,2.15
597,country club,0,BR,1554417948,40,-23.02,-47.01,86,6.93
598,coreau,92,BR,1554418219,99,-3.53,-40.66,70.1,2.26
599,ozinki,24,RU,1554418236,75,51.2,49.73,29.78,7.29
600,karakendzha,,,,,,,,
601,dzheyrakh,12,RU,1554418236,88,42.82,44.68,21.68,0.81
602,nagua,20,DO,1554415200,83,19.37,-69.85,82.4,11.41
603,praia da vitoria,75,PT,1554417959,58,38.73,-27.07,55.4,22.84
604,hornepayne,0,CA,1554418236,49,49.22,-84.78,26.18,4.5
605,magdeburg,12,DE,1554418031,88,52.13,11.64,48,5.99
606,lannion,64,FR,1554418215,93,48.73,-3.46,45,17.22
607,baturaja,80,ID,1554418237,95,-4.12,104.17,74.24,4.61
608,jinchengjiang,,,,,,,,
609,bonavista,36,CA,1554417983,79,48.65,-53.11,30.99,18.01
610,henties bay,0,NA,1554415329,91,-22.12,14.28,60.01,4
611,tenosique,,,,,,,,
